{
  "cities": [
    {
      "id": "6uf9tx",
      "cityName": "Villalar de los Comuneros",
      "country": "Spain",
      "emoji": "en",
      "date": "2025-05-13T20:30:00.000Z",
      "notes": "ewfef efgregfr regrgre ergrgrg regregrg regfregfr rgergr gregrg regr rggrgr regrgr jyjyjy ;kflrke kofkeorfk ofoekf feofoir oforkfo okforo oreogorg oreogrjg oroejg orgorog okrogjrog orgogjorgj gorogtog krgotogk greogrgjo orog orogjojg grgjirjg ogrgjrgjij",
      "position": {
        "lat": 41.525,
        "lng": -5.1746
      }
    },
    {
      "id": "b5tufv",
      "cityName": "Das",
      "country": "Spain",
      "emoji": "en",
      "date": "2025-05-13T20:30:00.000Z",
      "notes": "feferfe gregr regregr grregrgre g",
      "position": {
        "lat": 42.3585,
        "lng": 1.8658
      }
    },
    {
      "id": "bjaep7",
      "cityName": "El Burgo de Osma",
      "country": "Spain",
      "emoji": "en",
      "date": "2025-05-12T20:30:00.000Z",
      "notes": "dewdewf fefewfewwg",
      "position": {
        "lat": 41.6072,
        "lng": -2.9883
      }
    },
    {
      "id": "bji9pe",
      "cityName": "Albero Alto",
      "country": "Spain",
      "emoji": "en",
      "date": "2025-05-05T20:30:00.000Z",
      "notes": "dwdefe fefefr",
      "position": {
        "lat": 42.0493,
        "lng": -0.3516
      }
    },
    {
      "id": "bjmvgy",
      "cityName": "Ardning",
      "country": "Austria",
      "emoji": "en",
      "date": "2025-05-05T20:30:00.000Z",
      "notes": "dwefdewf ferfregt",
      "position": {
        "lat": 47.5765,
        "lng": 14.3481
      }
    },
    {
      "id": "gw69fn",
      "cityName": "Santa Maria del Campo Rus",
      "country": "Spain",
      "emoji": "en",
      "date": "2025-05-20T20:30:00.000Z",
      "notes": "efegew ewgeg egwegeg",
      "position": {
        "lat": 39.5718,
        "lng": -2.395
      }
    },
    {
      "id": "gw8s1l",
      "cityName": "Logrosan",
      "country": "Spain",
      "emoji": "en",
      "date": "2025-05-12T20:30:00.000Z",
      "notes": "fergr gregr gregreg gregegtg",
      "position": {
        "lat": 39.1812,
        "lng": -5.4272
      }
    },
    {
      "id": "gw9dqo",
      "cityName": "Vilafranca de Bonany",
      "country": "Spain",
      "emoji": "en",
      "date": "2025-05-19T20:30:00.000Z",
      "notes": "ff fef greg gergreg",
      "position": {
        "lat": 39.5549,
        "lng": 3.0981
      }
    }
  ]
}